City_ID,City,Lat,Lng,Max Temp,Humidity,Cloudiness,Wind Speed,Country,Date
0,Ribeira Grande,38.5167,-28.7,17.65,77,40,10.29,PT,1707747506
1,Saint-Philippe,-21.3585,55.7679,28.77,86,60,5.1,RE,1707747506
2,Codrington,-38.2667,141.9667,14.44,92,0,2.67,AU,1707747507
3,Waitangi,-43.9535,-176.5597,12.68,87,52,0.89,NZ,1707747507
4,Port-Aux-Francais,-49.35,70.2167,6.91,85,100,14.4,TF,1707747507
5,Bosaso,11.2842,49.1816,26.59,70,4,3.95,SO,1707747508
6,Invercargill,-46.4,168.35,10.01,86,32,1.34,NZ,1707747508
7,Atafu Village,-8.5421,-172.5159,29.16,76,100,9.67,TK,1707747508
8,Adamstown,-25.066,-130.1015,24.59,90,100,9.05,PN,1707747508
9,Hasaki,35.7333,140.8333,2.94,45,0,1.7,JP,1707747508
10,Ust-Nera,64.5667,143.2,-38.49,96,56,1.0,RU,1707747508
11,Barra De Santo Antonio,-9.4047,-35.5072,27.6,55,63,5.87,BR,1707747508
12,Longyearbyen,78.2186,15.6401,-14.09,85,20,5.14,SJ,1707747508
13,Sitka,57.0531,-135.33,2.94,87,20,3.09,US,1707747509
14,Uturoa,-16.7333,-151.4333,26.55,94,100,8.48,PF,1707747509
15,Puerto Natales,-51.7236,-72.4875,12.25,54,75,8.75,CL,1707747391
16,Mil'Kovo,55.6078,37.7956,-0.88,98,100,2.23,RU,1707747509
17,Avarua,-21.2078,-159.775,24.03,83,40,1.03,CK,1707747509
18,Albany,42.6001,-73.9662,2.24,74,31,2.81,US,1707747509
19,Minas De Marcona,-15.2119,-75.1103,21.78,66,51,4.59,PE,1707747509
20,Kosh-Agach,50.0,88.6667,-21.5,75,5,1.34,RU,1707747509
21,Vilyuysk,63.7553,121.6247,-26.11,98,100,2.24,RU,1707747510
22,Daru,-9.0763,143.2092,25.6,90,100,1.71,PG,1707747510
23,Yellowknife,62.456,-114.3525,-13.66,99,75,3.09,CA,1707747510
24,Iqaluit,63.7506,-68.5145,-29.06,68,20,1.03,CA,1707747510
25,Wailua Homesteads,22.0669,-159.378,19.24,82,0,3.6,US,1707747510
26,Vilyuchinsk,52.9306,158.4028,-17.26,85,13,3.66,RU,1707747510
27,Isafjordur,66.0755,-23.124,2.02,69,75,10.29,IS,1707747510
28,Kudahuvadhoo,2.6708,72.8944,24.63,92,100,2.05,MV,1707747510
29,Grytviken,-54.2811,-36.5092,3.77,96,86,2.28,GS,1707747511
30,Basco,20.4487,121.9702,21.97,57,100,10.18,PH,1707747511
31,Chibougamau,49.9168,-74.3659,-12.21,92,100,1.03,CA,1707747511
32,Puerto Ayora,-0.7393,-90.3518,28.98,82,7,2.3,EC,1707747511
33,Badger,64.8,-147.5333,-18.89,82,20,0.0,US,1707747511
34,Blackmans Bay,-43.0167,147.3167,17.07,76,92,1.54,AU,1707747511
35,Punta Arenas,-53.15,-70.9167,11.06,58,75,7.2,CL,1707747403
36,Lebu,-37.6167,-73.65,16.4,72,0,7.29,CL,1707747400
37,Baiyin,36.5583,104.2081,1.81,31,0,0.47,CN,1707747512
38,Okhotsk,59.3833,143.3,-30.56,99,47,2.39,RU,1707747512
39,Kavaratti,10.5669,72.642,28.47,68,15,3.45,IN,1707747513
40,Arraial Do Cabo,-22.9661,-42.0278,32.98,52,0,5.66,BR,1707747513
41,Pikalevo,59.5183,34.1664,-9.6,93,77,2.84,RU,1707747513
42,Seguela,7.9611,-6.6731,37.95,19,39,2.91,CI,1707747513
43,Port Lincoln,-34.7333,135.8667,17.59,88,0,3.83,AU,1707747514
44,Margate,51.3813,1.3862,11.17,69,4,2.68,GB,1707747449
45,Bredasdorp,-34.5322,20.0403,34.31,23,0,7.6,ZA,1707747218
46,Kodiak,57.79,-152.4072,2.73,93,100,9.77,US,1707747514
47,Mandapam,9.2833,79.1167,27.61,74,77,9.28,IN,1707747514
48,Mokhsogollokh,61.4681,128.9203,-29.32,100,96,2.0,RU,1707747514
49,Revelstoke,50.9832,-118.2023,0.01,100,100,0.0,CA,1707747515
50,Napili-Honokowai,20.9708,-156.6705,20.65,77,0,1.04,US,1707747515
51,Whitehorse,60.7161,-135.0538,-5.57,68,75,2.06,CA,1707747515
52,Petropavlovsk-Kamchatsky,53.0452,158.6483,-18.08,81,0,3.58,RU,1707747515
53,Tadine,-21.55,167.8833,25.16,85,14,7.79,NC,1707747516
54,Margaret River,-33.95,115.0667,15.84,75,54,7.88,AU,1707747516
55,Orchard Homes,46.8633,-114.0484,1.27,92,100,0.0,US,1707747516
56,Hadibu,12.65,54.0333,26.47,71,31,3.47,YE,1707747516
57,Hammerfest,70.6634,23.6821,-4.75,93,40,1.03,NO,1707747516
58,Kirensk,57.7853,108.1119,-16.13,96,100,2.24,RU,1707747516
59,Ancud,-41.8697,-73.8203,13.59,47,1,1.84,CL,1707747517
60,Ilulissat,69.2167,-51.1,-19.99,45,40,3.6,GL,1707747517
61,Ayame,5.6083,-3.1563,40.13,27,100,1.02,CI,1707747517
62,Tamanrasset,22.785,5.5228,28.95,10,0,1.54,DZ,1707747517
63,Sao Raimundo Das Mangabeiras,-7.0219,-45.4811,30.57,56,51,5.11,BR,1707747518
64,Kotka,60.4664,26.9458,-7.04,83,12,4.67,FI,1707747518
65,As Sulayyil,20.4607,45.5779,25.14,17,100,2.05,SA,1707747518
66,Rongelap,11.1635,166.8941,26.21,78,100,9.28,MH,1707747519
67,Awjilah,29.1081,21.2869,21.93,29,0,9.07,LY,1707747519
68,Taksimo,56.3444,114.8794,-18.21,90,100,1.1,RU,1707747519
69,Port Augusta,-32.5,137.7667,26.35,50,58,4.23,AU,1707747520
70,Alaghsas,17.0187,8.0168,34.94,5,0,1.54,NE,1707747520
71,I-N-Salah,27.1935,2.4607,28.84,18,0,4.32,DZ,1707747378
72,Hamilton,39.1834,-84.5333,1.9,85,0,6.17,US,1707747175
73,Shancheng,34.7953,116.0817,9.84,67,0,3.88,CN,1707747520
74,Letlhakeng,-24.0944,25.0298,35.75,17,19,1.24,BW,1707747520
75,Hawaiian Paradise Park,19.5933,-154.9731,20.02,98,100,3.09,US,1707747521
76,Kristiansund,63.1115,7.732,6.36,49,75,5.14,NO,1707747521
77,Papatowai,-46.5619,169.4708,10.8,86,52,2.5,NZ,1707747521
78,Siwa Oasis,29.2041,25.5195,24.17,13,100,1.73,EG,1707747521
79,Edinburgh Of The Seven Seas,-37.0676,-12.3116,17.07,72,80,9.24,SH,1707747521
80,Thompson,55.7435,-97.8558,-14.91,85,100,0.0,CA,1707747522
81,West Island,-12.1568,96.8225,28.99,74,11,5.14,CC,1707747522
82,Taroudant,30.4703,-8.877,31.4,14,0,2.43,MA,1707747522
83,Nyahururu,0.0421,36.3673,23.14,33,60,5.95,KE,1707747522
84,Jamestown,42.097,-79.2353,0.77,88,100,1.54,US,1707747277
85,Fale Old Settlement,-9.3852,-171.2468,28.54,81,100,11.05,TK,1707747523
86,St. John'S,47.5649,-52.7093,2.04,93,100,4.12,CA,1707747272
87,Yelizovo,53.1873,158.3805,-17.33,53,12,3.13,RU,1707747262
88,Udachny,66.4167,112.4,-37.53,59,94,2.36,RU,1707747523
89,Peace River,56.2501,-117.286,-5.83,68,20,3.6,CA,1707747524
90,Kegen,43.0197,79.2203,-6.47,96,100,0.82,KZ,1707747524
91,Tiksi,71.6872,128.8694,-32.25,100,100,1.07,RU,1707747524
92,Rio De Janeiro,-22.9028,-43.2075,34.0,58,0,4.12,BR,1707747003
93,Santa Cruz,-17.8,-63.1667,28.7,74,75,5.66,BO,1707747525
94,Grand Gaube,-20.0064,57.6608,30.2,83,21,1.34,MU,1707747525
95,Touros,-5.1989,-35.4608,31.32,59,16,7.66,BR,1707747466
96,Bethel,41.3712,-73.414,2.52,77,0,0.89,US,1707747449
97,Caleta De Carquin,-11.0925,-77.6267,25.41,78,93,3.77,PE,1707747525
98,Guerrero Negro,27.9769,-114.0611,14.08,56,0,3.58,MX,1707747526
99,Mili,6.0815,171.735,27.57,72,100,10.16,MH,1707747526
100,Balabac,7.9868,117.0645,26.56,81,86,8.61,PH,1707747526
101,Al Jawf,29.5,38.75,17.8,36,65,5.74,SA,1707747526
102,Volkovysk,53.1561,24.4513,7.25,96,100,3.37,BY,1707747527
103,Medina De Rioseco,41.8833,-5.0441,15.25,47,52,4.79,ES,1707747527
104,Acarau,-2.8856,-40.12,30.06,68,34,7.08,BR,1707747527
105,Timaru,-44.4,171.25,11.71,88,100,1.78,NZ,1707747527
106,Zheleznogorsk-Ilimskiy,56.5768,104.1217,-14.24,92,100,3.58,RU,1707747527
107,Altar,30.7,-111.8167,7.88,53,0,1.74,MX,1707747527
108,Marco Island,25.9363,-81.7157,23.89,94,0,4.63,US,1707747528
109,Obo,5.3998,26.4869,38.63,12,1,3.03,CF,1707747528
110,Bonthe,7.5264,-12.505,30.93,59,2,5.77,SL,1707747528
111,Namsos,64.4662,11.4957,-1.97,50,0,11.32,NO,1707747528
112,Port Alfred,-33.5906,26.891,32.46,43,0,9.25,ZA,1707747529
113,Choix,26.7092,-108.3219,8.97,35,0,2.86,MX,1707747529
114,Port Elizabeth,-33.918,25.5701,26.84,66,1,8.23,ZA,1707747529
115,Quellon,-43.1167,-73.6167,13.08,59,7,4.6,CL,1707747529
116,Enewetak,11.3474,162.3373,26.35,72,100,9.92,MH,1707747529
117,Masterton,-40.9597,175.6575,11.17,93,83,0.82,NZ,1707747530
118,Nadym,65.5333,72.5167,-33.33,99,46,3.6,RU,1707747530
119,Howrah,22.5892,88.3103,24.0,57,40,0.0,IN,1707747530
120,Taulaga,-11.0553,-171.0883,28.82,81,100,10.11,AS,1707747530
121,Katsuura,35.1333,140.3,7.84,49,1,1.17,JP,1707747531
122,Vernon,50.2581,-119.2691,2.94,95,100,1.03,CA,1707747531
123,Hithadhoo,-0.6,73.0833,26.86,84,100,7.52,MV,1707747532
124,Kapa'A,22.0752,-159.319,19.99,82,0,3.6,US,1707747462
125,Sola,-13.8833,167.55,27.56,75,17,5.44,VU,1707747532
126,Kokshetau,53.2775,69.3883,-16.73,91,62,3.98,KZ,1707747532
127,Ushuaia,-54.8,-68.3,9.81,62,75,7.72,AR,1707747425
128,Manuguru,17.981,80.7547,26.57,35,52,2.57,IN,1707747533
129,Bilibino,68.0546,166.4372,-30.71,96,100,1.87,RU,1707747325
130,Igarka,67.4667,86.5833,-34.34,91,9,2.19,RU,1707747533
131,Smithers,54.7804,-127.1743,-6.82,100,100,2.57,CA,1707747465
132,Embi,48.8264,58.1442,-8.96,87,94,4.04,KZ,1707747534
133,Changli,39.7042,119.1506,4.37,79,0,1.19,CN,1707747534
134,Pimentel,-6.8367,-79.9342,26.16,78,75,4.63,PE,1707747412
135,Hono,57.6897,11.6497,1.2,96,100,5.17,SE,1707747535
136,Tindouf,27.6711,-8.1474,29.25,17,0,2.57,DZ,1707747536
137,Bodo,67.28,14.405,-3.98,58,100,13.89,NO,1707747536
138,Lugu,23.7464,120.7525,15.26,72,5,1.49,TW,1707747536
139,Shizuishan,39.2333,106.7694,3.15,21,0,1.15,CN,1707747537
140,Vieira De Leiria,39.8695,-8.9324,21.03,76,14,3.84,PT,1707747537
141,Haiku-Pauwela,20.9219,-156.3051,20.02,72,0,3.09,US,1707747537
142,Bahir Dar,11.5936,37.3908,27.87,23,44,5.81,ET,1707747538
143,Arawa,-6.2132,155.5367,25.36,91,100,1.49,PG,1707747538
144,Huarmey,-10.0681,-78.1522,24.17,84,27,4.09,PE,1707747538
145,Moron,-34.6534,-58.6198,20.86,91,100,4.32,AR,1707747538
146,Tazovsky,67.4667,78.7,-36.01,99,21,1.73,RU,1707747538
147,Mejit,10.2753,170.8646,26.63,76,100,9.72,MH,1707747539
148,Usevia,-7.1,31.2333,25.8,87,72,1.99,TZ,1707747539
149,Stanley,54.868,-1.6985,7.93,67,20,6.17,GB,1707747540
150,Galliano,29.4422,-90.2992,16.11,82,100,6.69,US,1707747540
151,Sabang,5.8933,95.3214,28.42,74,6,11.44,ID,1707747436
152,Nuku'Alofa,-21.1333,-175.2,26.19,100,100,5.14,TO,1707747540
153,Mpongwe,-13.5091,28.155,24.14,66,100,3.66,ZM,1707747541
154,Sadovoye,47.7764,44.5089,2.99,100,100,1.85,RU,1707747542
155,Camiling,15.7,120.4167,21.08,75,4,3.57,PH,1707747542
156,Port Mathurin,-19.6833,63.4167,27.51,87,9,8.4,MU,1707747542
157,Nikopol,47.5712,34.3964,8.42,84,100,8.03,UA,1707747543
158,Fort William,56.8165,-5.1121,5.91,92,100,3.24,GB,1707747543
159,Natal,-5.795,-35.2094,31.36,70,40,7.72,BR,1707747532
160,Salima,-13.7804,34.4587,24.46,88,100,0.76,MW,1707747544
161,Flying Fish Cove,-10.4217,105.6791,26.82,89,40,2.57,CX,1707747456
162,Constantia,44.1833,28.65,14.38,70,100,10.39,RO,1707747246
163,Paka,4.6374,103.4368,24.96,94,79,1.03,MY,1707747544
164,Demyansk,57.643,32.466,-0.41,94,100,2.96,RU,1707747545
165,Qaqortoq,60.7167,-46.0333,-6.87,60,100,2.35,GL,1707747545
166,Ola,59.5833,151.2833,-22.37,92,100,3.12,RU,1707747545
167,Inarajan Village,13.2736,144.7484,26.54,87,94,9.93,GU,1707747545
168,Severo-Yeniseyskiy,60.3725,93.0408,-21.71,96,100,3.38,RU,1707747546
169,Bamboo Flat,11.7,92.7167,28.05,83,40,4.12,IN,1707747546
170,Pisco,-13.7,-76.2167,26.12,78,40,1.54,PE,1707747546
171,Hami,42.8,93.45,1.87,50,96,3.41,CN,1707747526
172,Yingkou,40.6648,122.2283,0.62,88,0,5.27,CN,1707747547
173,Semnan,35.5729,53.3971,10.56,53,0,0.78,IR,1707747461
174,Klyuchi,52.2667,79.1667,-14.41,82,21,4.55,RU,1707747547
175,Utrik,11.2278,169.8474,26.22,76,100,9.35,MH,1707747548
176,Prado,-17.3411,-39.2208,29.6,64,14,3.7,BR,1707747548
177,Thames,-37.1333,175.5333,14.56,80,3,1.8,NZ,1707747548
178,Yelovo,57.0538,54.9207,-15.96,96,83,2.9,RU,1707747549
179,San Antonio De Pale,-1.4014,5.6325,28.66,76,27,2.01,GQ,1707747549
180,Buka,40.8108,69.1986,8.74,62,96,2.42,UZ,1707747549
181,Laojunmiao,39.8333,97.7333,-1.26,34,100,0.64,CN,1707747549
182,San Miguel,13.4833,-88.1833,26.22,60,31,1.31,SV,1707746978
183,Verkhnevilyuysk,63.4453,120.3167,-25.89,98,100,1.78,RU,1707747551
184,Claveria,18.6074,121.0832,23.34,68,94,13.26,PH,1707747551
185,Portland,45.5234,-122.6762,8.58,92,100,3.13,US,1707747241
186,Colonia,50.9333,6.95,11.44,72,40,4.63,DE,1707747268
187,Agat Village,13.3886,144.6585,26.52,79,20,5.14,GU,1707747552
188,East London,-33.0153,27.9116,26.52,69,0,9.77,ZA,1707747552
189,Hafar Al-Batin,28.4328,45.9708,19.32,59,0,0.0,SA,1707747552
190,Lompoc,34.6391,-120.4579,5.88,95,0,3.09,US,1707747552
191,Kerikeri,-35.2268,173.9474,18.28,87,65,0.99,NZ,1707747553
192,Selebi-Phikwe,-21.979,27.8498,31.32,31,0,5.03,BW,1707747553
193,Jarvenpaa,60.4737,25.0899,-5.16,63,0,6.69,FI,1707747554
194,Puerto Maldonado,-12.6,-69.1833,24.22,100,75,2.06,PE,1707747555
195,Eenhana,-17.4667,16.3333,33.8,33,82,0.78,NA,1707747555
196,Kabare,-2.4683,28.8242,23.96,68,68,1.5,CD,1707747380
197,Edinet,48.1681,27.305,12.41,70,100,0.62,MD,1707747555
198,Halden,59.1226,11.3871,-1.32,91,100,4.17,NO,1707747555
199,La Ronge,55.1001,-105.2842,-9.86,85,0,1.03,CA,1707747556
200,Palmas,-10.2128,-48.3603,26.93,83,40,4.12,BR,1707747556
201,El Bayadh,33.6832,1.0193,17.28,40,4,12.85,DZ,1707747556
202,Vila Velha,-20.3297,-40.2925,31.97,77,75,4.63,BR,1707747381
203,Nuuk,64.1835,-51.7216,-11.66,72,40,6.17,GL,1707747540
204,Kelso,46.1468,-122.9084,8.05,96,100,2.06,US,1707747557
205,Castillos,-34.1667,-53.8333,35.12,44,16,6.42,UY,1707747557
206,Labrador City,52.9463,-66.9114,-11.05,73,100,4.12,CA,1707747557
207,Saipan,15.1355,145.701,26.39,73,20,5.66,MP,1707747558
208,Nar'Yan-Mar,67.6713,53.087,-29.38,98,7,1.79,RU,1707747558
209,Esikhaleni,-28.871,31.8996,26.84,55,39,7.11,ZA,1707747558
210,San Cristobal Verapaz,15.3833,-90.4,19.31,52,0,3.09,GT,1707747559
211,Sylva,58.0348,56.7635,-11.35,96,100,2.28,RU,1707747559
212,Liangxiang,39.7319,116.14,5.76,43,0,1.13,CN,1707747559
213,Baragua,21.6967,-78.6328,24.87,65,0,3.01,CU,1707747559
214,Rezh,57.37,61.4043,-14.74,95,76,2.64,RU,1707747560
215,Hawera,-39.5917,174.2833,11.24,92,31,2.39,NZ,1707747327
216,Vila Do Maio,15.1333,-23.2167,28.44,79,0,5.75,CV,1707747560
217,Tromso,69.6496,18.957,-6.99,86,0,1.54,NO,1707747561
218,Burabay,53.0838,70.3138,-18.0,94,27,3.28,KZ,1707747561
219,Sisimiut,66.9395,-53.6735,-20.4,84,59,1.8,GL,1707747561
220,Greymouth,-42.4667,171.2,15.23,69,100,6.5,NZ,1707747561
221,Guilin,25.2819,110.2864,13.06,55,84,0.72,CN,1707747561
222,Westport,41.1415,-73.3579,4.07,78,0,1.54,US,1707747487
223,Lazaro Cardenas,17.9583,-102.2,21.98,82,85,2.68,MX,1707747562
224,Stara Tura,48.7772,17.6943,11.05,68,75,5.14,SK,1707747562
225,Pingzhuang,42.0372,119.2889,0.68,56,0,3.61,CN,1707747562
226,Saint-Francois,46.4154,3.9054,11.49,59,0,2.57,FR,1707747562
227,Lihue,21.9789,-159.3672,19.58,82,0,3.6,US,1707747563
228,Nieves,15.3274,120.9485,23.73,80,0,0.46,PH,1707747563
229,El Calafate,-50.3408,-72.2768,8.45,50,85,3.46,AR,1707747563
230,College,64.8569,-147.8028,-18.84,79,40,0.0,US,1707747564
231,Myrzakent,40.6667,68.5333,8.4,58,95,2.26,KZ,1707747564
232,Fonte Boa,-2.4959,-66.2662,25.47,95,100,0.23,BR,1707747565
233,Puerto Baquerizo Moreno,-0.9,-89.6,24.55,94,75,3.09,EC,1707747565
234,Upper Grand Lagoon,30.1633,-85.7408,21.17,98,75,5.66,US,1707747565
235,Narasapur,16.45,81.6667,21.67,82,89,3.3,IN,1707747566
236,Robertsport,6.7533,-11.3686,28.94,75,98,5.2,LR,1707747566
237,Tchibanga,-2.85,11.0333,33.91,49,100,1.29,GA,1707747413
238,Namibe,-15.1961,12.1522,28.79,67,99,5.27,AO,1707747566
239,Eyl,7.9803,49.8164,28.68,56,35,7.13,SO,1707747566
240,Gisborne,-38.6533,178.0042,9.78,94,5,1.07,NZ,1707747567
241,Usogorsk,63.4106,48.6872,-18.52,100,94,0.85,RU,1707747567
242,Akrehamn,59.2667,5.1833,1.14,93,75,8.75,NO,1707747567
243,Tanggu,39.0211,117.6469,1.98,54,0,1.27,CN,1707747567
244,Lloydminster,53.2835,-110.0016,-7.88,79,75,5.14,CA,1707747568
245,Midvagur,62.0511,-7.1939,6.46,87,20,4.63,FO,1707747568
246,Safotu,-13.4513,-172.4018,27.72,94,100,9.62,WS,1707747568
247,Vadso,70.0744,29.7487,-4.91,86,75,4.12,NO,1707747568
248,Greenville,35.6127,-77.3663,14.09,98,100,1.79,US,1707747568
249,Hermanus,-34.4187,19.2345,25.45,73,0,5.38,ZA,1707747568
250,Mar Del Plata,-38.0023,-57.5575,23.07,81,100,2.68,AR,1707747520
251,Ndele,8.4109,20.6473,39.36,11,100,3.05,CF,1707747569
252,Shumikha,55.2261,63.2961,-15.3,95,100,3.17,RU,1707747569
253,Fortaleza,-3.7227,-38.5247,31.23,83,75,9.26,BR,1707747569
254,Vallenar,-28.5708,-70.7581,21.82,64,3,3.91,CL,1707747569
255,Konarka,19.9,86.1167,24.22,65,11,3.24,IN,1707747569
256,Yarmouth,41.7057,-70.2286,5.08,83,0,3.6,US,1707747570
257,Praia Da Vitoria,38.7333,-27.0667,18.14,77,20,12.52,PT,1707747570
258,Choyr,46.3611,108.3611,-6.08,82,29,3.27,MN,1707747570
259,Mata-Utu,-13.2816,-176.1745,26.88,89,100,11.58,WF,1707747571
260,Manggar,-2.8833,108.2667,26.61,87,97,2.97,ID,1707747571
261,Conde,-7.2597,-34.9075,31.7,66,75,6.69,BR,1707747571
262,Alice Springs,-23.7,133.8833,25.75,78,100,2.06,AU,1707747571
263,Georgetown,5.4112,100.3354,29.96,64,20,2.57,MY,1707747571
264,Los Andes,-32.8337,-70.5983,26.67,30,15,2.23,CL,1707747571
265,Los Alamos,35.8881,-106.307,-5.41,81,0,0.0,US,1707747438
266,Bayside,40.8424,-124.0637,9.94,93,100,0.45,US,1707747572
267,Sarny,51.338,26.6019,11.02,76,100,1.81,UA,1707747572
268,Chonchi,-42.6128,-73.8092,13.56,44,0,1.97,CL,1707747572
269,Rocha,-34.4833,-54.3333,35.39,42,30,5.76,UY,1707747545
270,Camocim,-2.9022,-40.8411,31.37,62,25,5.39,BR,1707747572
271,Coquimbo,-29.9533,-71.3436,17.85,88,100,2.57,CL,1707747573
272,Bel Ombre,-4.6167,55.4167,29.91,70,40,5.66,SC,1707747573
273,Sinop,41.7711,34.8709,13.96,51,100,3.06,TR,1707747573
274,Nabire,-3.3667,135.4833,25.26,91,100,0.82,ID,1707747573
275,Ad Dawadimi,24.5077,44.3924,15.64,38,39,3.21,SA,1707747573
276,Sandnessjoen,66.0217,12.6316,-1.94,50,0,5.14,NO,1707747573
277,Iranshahr,27.2025,60.6848,20.19,49,100,5.14,IR,1707747574
278,Aral,40.5156,81.2636,3.58,47,57,1.57,CN,1707747574
279,Vorgashor,67.5833,63.95,-35.83,100,45,0.76,RU,1707747574
280,Tsiombe,-25.3,45.4833,28.53,71,51,7.1,MG,1707747574
281,Old Town,50.087,14.4202,11.37,75,0,6.17,CZ,1707747546
282,Mana,5.6592,-53.7767,27.68,73,42,4.9,GF,1707747575
283,Palmer,42.1584,-72.3287,2.69,87,20,0.0,US,1707747569
284,Smidovich,48.6,133.8167,-10.34,96,100,1.84,RU,1707747575
285,Ardakan,32.31,54.0175,16.35,19,0,2.76,IR,1707747448
286,Miranda,3.2499,-76.2281,25.07,71,44,1.67,CO,1707747575
287,New Norfolk,-42.7826,147.0587,17.72,98,66,0.76,AU,1707747576
288,Ploneour-Lanvern,47.9,-4.2833,11.18,66,20,3.6,FR,1707747576
289,Maumere,-8.6199,122.2111,26.79,85,99,4.29,ID,1707747576
290,Sao Gabriel Da Cachoeira,-0.1303,-67.0892,26.89,89,100,1.54,BR,1707747576
291,Polyarnyy,69.1989,33.4478,-19.53,100,60,3.2,RU,1707747577
292,Puerto Deseado,-47.7503,-65.8938,11.52,50,7,15.11,AR,1707747577
293,Prince Rupert,54.3161,-130.3201,3.83,93,100,3.09,CA,1707747577
294,Astrakhan,46.3497,48.0408,11.93,71,0,3.13,RU,1707747577
295,Forbes,-33.3833,148.0167,26.62,49,26,3.42,AU,1707747578
296,Pandan,14.0453,124.1694,24.54,85,100,9.49,PH,1707747578
297,Cadale,2.7603,46.3222,27.54,76,88,7.49,SO,1707747578
298,Ubari,26.5921,12.7805,23.25,20,0,6.13,LY,1707747578
299,Urengoy,65.9667,78.3667,-33.5,92,11,3.35,RU,1707747579
300,San Lawrenz,36.0553,14.204,13.67,72,81,9.06,MT,1707747579
301,Sopron,47.685,16.5905,14.1,59,99,5.77,HU,1707747333
302,Dahlonega,34.5326,-83.9849,14.06,97,100,2.37,US,1707747579
303,Catriel,-37.8791,-67.7956,20.91,29,0,6.73,AR,1707747342
304,Ghadamis,30.1337,9.5007,22.83,27,2,9.12,LY,1707747579
305,Tual,-5.6667,132.75,28.99,77,100,4.75,ID,1707747580
306,Baley,51.6,116.6333,-9.42,98,100,0.65,RU,1707747580
307,Roosevelt,33.9668,-103.4505,-7.88,87,5,4.68,US,1707747580
308,Carnarvon,-24.8667,113.6333,24.87,78,0,10.42,AU,1707747581
309,Dryden,49.7833,-92.7503,-8.84,92,100,2.57,CA,1707747581
310,Kenora,49.8167,-94.4337,-7.46,100,100,2.06,CA,1707747581
311,Luderitz,-26.6481,15.1594,18.03,93,28,5.51,NA,1707747581
312,Ponta Delgada,37.7333,-25.6667,18.44,77,20,8.75,PT,1707747581
313,Al Burayqah,30.4062,19.5739,17.62,53,0,7.09,LY,1707747581
314,Palmerston,-12.486,130.9833,27.99,89,75,5.14,AU,1707747582
315,Fiambala,-27.6871,-67.6149,27.84,52,100,3.45,AR,1707747582
316,Fortuna,40.5982,-124.1573,9.81,94,100,0.0,US,1707747443
317,Eldorado At Santa Fe,35.5264,-105.9347,-4.47,82,0,2.24,US,1707747582
318,Merizo Village,13.2658,144.6691,26.31,87,100,10.16,GU,1707747582
319,Ulladulla,-35.35,150.4667,20.5,85,0,2.97,AU,1707747583
320,North Bend,43.4065,-124.2243,7.91,100,100,0.0,US,1707747583
321,Yuzhno-Kurilsk,44.0306,145.8556,-5.35,80,45,4.77,RU,1707747583
322,Marat,25.0701,45.4615,18.51,39,0,4.19,SA,1707747583
323,Durban,-29.8579,31.0292,26.51,65,70,7.84,ZA,1707747583
324,Qujing,25.4833,103.7833,11.2,66,83,5.72,CN,1707747419
325,Diego Martin,10.7005,-61.5342,27.3,62,13,5.08,TT,1707747583
326,Labytnangi,66.6572,66.4183,-30.17,87,1,2.44,RU,1707747584
327,Gizo,-8.103,156.8419,27.94,79,28,5.24,SB,1707747584
328,Sebastopol,44.6,33.5333,11.1,73,100,2.41,UA,1707747584
329,Queenstown,-31.8976,26.8753,35.46,16,6,4.7,ZA,1707747584
330,Kolonia,50.9333,6.95,11.65,67,40,4.63,DE,1707747538
331,Cockburn Town,21.4612,-71.1419,24.98,69,75,6.17,TC,1707747584
332,Namli,23.4333,75.05,21.17,32,100,1.59,IN,1707747585
333,Cooma,-36.2333,149.1333,20.46,65,0,2.29,AU,1707747449
334,Itoman,26.1247,127.6694,17.01,51,2,2.57,JP,1707747585
335,Nogliki,51.8333,143.1667,-10.92,96,100,3.13,RU,1707747585
336,Yakeshi,49.2833,120.7333,-13.19,96,100,1.84,CN,1707747585
337,Qamdo,31.1667,97.2333,-5.34,32,94,1.23,CN,1707747585
338,Birniwa,12.7903,10.2348,36.64,5,0,4.1,NG,1707747585
339,Solnechnyy,50.7214,136.6319,-8.87,88,100,2.12,RU,1707747586
340,Hualien City,23.9769,121.6044,14.94,84,95,1.4,TW,1707747586
341,Bardai,11.65,7.2333,36.06,9,0,3.93,NG,1707747586
342,Rovaniemi,66.5,25.7167,-20.33,84,100,2.06,FI,1707747586
343,Amga,60.8953,131.9608,-22.12,100,100,0.99,RU,1707747586
344,Puerto Leguizamo,-0.1934,-74.7819,25.7,84,99,1.32,CO,1707747587
345,Cill Airne,52.05,-9.5167,8.03,81,40,9.26,IE,1707747587
346,Piton Saint-Leu,-21.2196,55.3151,28.04,79,0,9.26,RE,1707747587
347,Dubbo,-32.25,148.6167,24.07,64,63,5.14,AU,1707747587
348,Esmeraldas,-19.7625,-44.3139,28.48,64,3,2.37,BR,1707747587
349,Kapuskasing,49.4169,-82.4331,-8.95,86,100,1.54,CA,1707747389
350,Sanctuary Point,-35.1114,150.629,23.51,89,3,3.51,AU,1707747587
351,Tura,25.5198,90.2201,16.46,31,0,1.18,IN,1707747587
352,Pemba,-12.974,40.5178,27.39,89,75,2.57,MZ,1707747588
353,Argo,37.6333,22.7333,15.44,39,4,3.25,GR,1707747588
354,Lerwick,60.1545,-1.1494,7.0,83,50,8.44,GB,1707747588
355,Ar Rudayyif,34.3827,8.1555,17.87,53,92,7.91,TN,1707747588
356,Talcahuano,-36.7167,-73.1167,17.82,68,0,3.09,CL,1707747588
357,Iskateley,67.6803,53.1512,-29.43,98,7,1.79,RU,1707747588
358,El Bolson,-41.9667,-71.5167,17.28,38,0,0.22,AR,1707747589
359,Maloye Ganyushkino,46.6,49.2667,4.3,94,83,3.02,KZ,1707747589
360,Ed Damer,17.5928,33.9592,32.02,11,0,3.05,SD,1707747589
361,Musoma,-1.5,33.8,25.29,66,77,5.29,TZ,1707747589
362,Olonkinbyen,70.9221,-8.7187,-1.79,90,100,7.46,SJ,1707747589
363,Salinas,36.6777,-121.6555,9.76,82,0,2.06,US,1707747393
364,Broken Hill,-31.95,141.4333,30.7,30,17,4.75,AU,1707747589
365,Port Antonio,18.18,-76.4612,28.95,72,25,6.72,JM,1707747590
366,Oban,56.4127,-5.4706,5.95,81,75,7.72,GB,1707747590
367,Angaur State,6.906,134.13,27.06,85,87,10.29,PW,1707747590
368,Khark,29.2614,50.3306,20.01,73,0,3.09,IR,1707747590
369,York Beach,43.1717,-70.6089,4.03,75,88,0.89,US,1707747590
370,Ulan Bator,47.9077,106.8832,-6.93,79,75,2.0,MN,1707747386
371,Karelichy,53.5653,26.1378,6.26,92,98,3.57,BY,1707747591
372,Cafayate,-26.073,-65.9761,23.59,77,100,2.27,AR,1707747591
373,Puerto Santa,-8.9906,-78.6456,24.24,82,97,2.84,PE,1707747591
374,Kenai,60.5544,-151.2583,-1.97,100,100,2.57,US,1707747591
375,Kodinsk,58.6881,99.1844,-13.64,92,100,4.08,RU,1707747592
376,Zima,53.9202,102.0442,-15.29,98,100,0.77,RU,1707747592
377,Tehuacan,18.45,-97.3833,18.65,45,0,0.38,MX,1707747458
378,Khandyga,62.6667,135.6,-28.71,93,100,1.47,RU,1707747592
379,Satun,6.8333,100.0,27.67,73,11,4.54,TH,1707747592
380,Jayapura,-2.5333,140.7,24.66,89,100,1.26,ID,1707747593
381,Zhangye,38.9342,100.4517,0.66,33,100,0.07,CN,1707747593
382,Puerto Gaitan,4.3133,-72.0816,31.33,44,69,6.32,CO,1707747593
383,Alice,27.7523,-98.0697,9.73,53,0,8.23,US,1707747593
384,Kudymkar,59.0173,54.656,-11.58,93,100,3.73,RU,1707747593
385,Noumea,-22.2763,166.4572,26.67,99,88,5.4,NC,1707747593
386,Anadyr,64.75,177.4833,-28.72,83,0,5.0,RU,1707747594
387,Kirakira,-10.4544,161.9205,27.65,80,100,6.72,SB,1707747594
388,Alofi,-19.0595,-169.9187,25.94,100,100,3.09,NU,1707747594
389,Petoskey,45.3733,-84.9553,-0.67,88,75,1.34,US,1707747435
390,Kidal,18.4411,1.4078,34.26,4,0,2.37,ML,1707747455
391,Mount Pearl,47.5166,-52.7813,1.85,94,100,4.12,CA,1707747340
392,Talnakh,69.4865,88.3972,-35.22,89,9,1.68,RU,1707747595
393,Colby,39.3958,-101.0524,-4.98,82,0,4.12,US,1707747595
394,Cidade Velha,14.9167,-23.6167,28.26,54,20,8.75,CV,1707747595
395,Banska Stiavnica,48.4486,18.91,7.13,73,100,2.24,SK,1707747595
396,Harar,9.3094,42.1258,24.53,34,76,0.92,ET,1707747595
397,Kemerovo,55.3333,86.0833,-18.17,78,75,6.0,RU,1707747374
398,Chui,-33.6971,-53.4616,30.29,62,1,4.62,UY,1707747596
399,Pontes E Lacerda,-15.2261,-59.3353,25.74,88,100,2.82,BR,1707747376
400,Kharp,66.8014,65.8081,-29.61,89,3,3.41,RU,1707747596
401,Kidodi,-7.6036,37.0044,26.3,89,100,1.38,TZ,1707747596
402,Bequimao,-2.4489,-44.7825,31.01,61,32,2.55,BR,1707747596
403,Bikenibeu Village,1.3673,173.1241,28.24,80,94,6.55,KI,1707747596
404,Adamovka,51.5223,59.9396,-18.33,90,16,3.11,RU,1707747597
405,Markovo,57.3206,107.0881,-16.79,96,99,2.12,RU,1707747597
406,Zahedan,29.4963,60.8629,14.95,21,0,4.12,IR,1707747597
407,Rupert,42.6191,-113.6772,-2.03,74,100,2.06,US,1707747597
408,Sukhobezvodnoye,57.0491,44.8891,-6.73,96,100,2.52,RU,1707747597
409,Mount Isa,-20.7333,139.5,27.87,69,84,0.51,AU,1707747597
410,Teguise,29.0605,-13.564,19.12,78,20,8.23,ES,1707747597
411,Mcalester,34.9334,-95.7697,2.05,93,100,4.12,US,1707747598
412,Egilsstadir,65.2653,-14.3948,0.95,93,100,7.72,IS,1707747598
413,Petropavlovka,50.6114,105.3196,-16.05,89,100,2.35,RU,1707747598
414,Kursavka,44.4564,42.5093,11.64,60,100,2.67,RU,1707747598
415,Trat,12.5,102.5,24.81,55,17,2.61,TH,1707747598
416,Ouadda,8.0777,22.4007,40.37,12,100,1.47,CF,1707747599
417,Kattivakkam,13.2167,80.3167,27.28,71,11,4.7,IN,1707747599
418,Ishpeming,46.4885,-87.6676,-3.41,87,100,2.56,US,1707747599
419,Huangyan,28.6478,121.2594,8.16,80,13,1.35,CN,1707747599
420,Naze,28.3667,129.4833,13.51,65,0,3.26,JP,1707747599
421,Prince George,53.9166,-122.753,-6.32,94,100,1.54,CA,1707747385
422,Baukau,51.5526,7.2042,10.03,85,94,4.56,DE,1707747600
423,Fort Bragg,35.139,-79.006,16.32,97,100,3.09,US,1707747600
424,Dalandzadgad,43.5708,104.425,-2.68,49,68,3.83,MN,1707747601
425,Douala,4.0483,9.7043,35.33,46,12,5.36,CM,1707747400
426,Yonan-Up,37.9089,126.1611,2.17,86,7,2.98,KP,1707747601
427,Melfort,52.8667,-104.6177,-9.93,85,52,2.57,CA,1707747602
428,Keflavik,64.0049,-22.5624,2.95,80,75,7.72,IS,1707747602
429,Dalbandin,28.8947,64.4101,18.94,33,100,4.29,PK,1707747602
430,Krasnovishersk,60.4078,57.082,-13.38,95,100,3.07,RU,1707747603
431,Waingapu,-9.6567,120.2641,26.41,87,100,2.8,ID,1707747603
432,Qoryooley,1.7878,44.53,29.78,57,17,8.61,SO,1707747604
433,Al Kharj,24.155,47.3346,18.32,33,1,5.11,SA,1707747604
434,Al Bukayriyah,26.1442,43.6593,15.87,39,0,2.8,SA,1707747604
435,Porto Seguro,-16.4497,-39.0647,28.29,78,75,2.57,BR,1707747605
436,Changping,40.2186,116.2197,-1.2,49,0,1.63,CN,1707747605
437,Tezu,27.9167,96.1667,17.3,44,0,2.13,IN,1707747605
438,Afaahiti,-17.75,-149.2833,25.93,88,100,5.15,PF,1707747605
439,Ashland,40.8167,-82.2665,-0.96,97,3,1.67,US,1707747606
440,Vila Franca Do Campo,37.7167,-25.4333,18.27,99,21,8.44,PT,1707747606
441,Sambava,-14.2667,50.1667,25.42,90,100,1.39,MG,1707747606
442,Tommot,58.9564,126.2925,-24.87,100,77,1.47,RU,1707747607
443,Beyneu,45.3167,55.2,9.13,60,100,5.31,KZ,1707747607
444,Saudarkrokur,65.7461,-19.6394,0.54,87,99,6.35,IS,1707747607
445,Boca Suno,-0.7167,-77.1333,24.77,93,100,0.93,EC,1707747378
446,Leava,-14.3,-178.1667,28.12,84,100,9.91,WF,1707747324
447,Kamen'-Rybolov,44.7481,132.0403,-3.36,84,6,6.93,RU,1707747608
448,Bubaque,11.2833,-15.8333,26.36,58,0,3.56,GW,1707747608
449,Saldanha,-33.0117,17.9442,20.46,92,0,5.74,ZA,1707747609
450,Santiago De Cao,-7.9589,-79.2392,24.07,88,75,3.09,PE,1707747609
451,Koh Kong,11.6175,102.9806,25.92,64,65,0.86,KH,1707747609
452,Selendi,38.7444,28.8678,13.47,55,100,7.03,TR,1707747609
453,Big Spring,32.2504,-101.4787,-0.43,86,0,2.06,US,1707747610
454,Ugoofaaru,5.6667,73.0,27.82,73,85,4.74,MV,1707747610
455,Rikaze,29.25,88.8833,0.11,17,0,0.7,CN,1707747611
456,Nagqu,31.5,92.0,-6.11,18,100,0.42,CN,1707747611
457,Isangel,-19.55,169.2667,26.43,88,22,5.96,VU,1707747611
458,Kelme,55.6339,22.9342,1.01,99,100,4.11,LT,1707747611
459,Glace Bay,46.1969,-59.957,3.92,75,75,4.63,CA,1707747611
460,Berezovo,63.9381,65.0419,-32.75,100,7,0.88,RU,1707747612
461,Eraan,9.0629,117.7016,27.07,75,84,5.83,PH,1707747612
462,Sao Felix Do Xingu,-6.6447,-51.995,29.44,64,74,2.42,BR,1707747612
463,Happy Valley-Goose Bay,53.3168,-60.3315,-2.83,80,75,3.09,CA,1707747612
464,La Passe,45.5549,-0.8967,10.55,82,91,5.15,FR,1707747612
465,Yantai,37.5333,121.4,4.02,84,0,4.59,CN,1707747613
466,Lido Di Ostia,41.7321,12.2765,16.71,56,40,4.12,IT,1707747613
467,Kalmunai,7.4167,81.8167,25.93,86,81,4.38,LK,1707747613
468,Antalaha,-14.9003,50.2788,26.97,86,100,0.21,MG,1707747613
469,Lospalos,-8.5186,127.0025,24.42,89,100,6.03,TL,1707747613
470,Tazacorte,28.629,-17.9293,22.3,81,75,3.09,ES,1707747614
471,Shelburne,44.0787,-80.2041,-1.54,86,75,2.41,CA,1707747614
472,Bayanhongor,46.7167,100.1167,-16.1,92,71,1.06,MN,1707747614
473,Ciudad Lazaro Cardenas,17.9583,-102.2,21.98,82,85,2.68,MX,1707747614
474,Aykhal,66.0,111.5,-33.95,99,100,3.19,RU,1707747615
475,Titay,7.8125,122.5344,24.93,71,43,4.53,PH,1707747615
476,Morondava,-20.2833,44.2833,29.25,76,100,3.56,MG,1707747615
477,Kone,-21.0595,164.8658,24.92,88,65,2.19,NC,1707747615
478,Carutapera,-1.195,-46.02,29.25,71,38,4.1,BR,1707747546
479,Grosseto,42.8333,11.25,16.2,82,40,1.07,IT,1707747616
480,Mragowo,53.8644,21.3051,8.0,96,100,4.45,PL,1707747616
481,Harstad,68.799,16.5293,-2.34,69,95,8.05,NO,1707747616
482,Caltagirone,37.2368,14.5126,15.55,62,8,8.25,IT,1707747616
483,Aasiaat,68.7098,-52.8699,-30.84,99,50,3.02,GL,1707747617
484,Vinton,37.281,-79.897,11.76,95,100,1.54,US,1707747617
485,Rio Grande,-32.035,-52.0986,29.97,56,51,4.24,BR,1707747617
486,Kuroiso,36.9667,140.05,0.46,62,1,1.87,JP,1707747617
487,Kendari,-3.945,122.4989,25.48,88,99,0.13,ID,1707747618
488,Kruisfontein,-34.0033,24.7314,32.62,33,0,7.15,ZA,1707747618
489,Qarauyl,48.9451,79.255,-18.28,90,8,2.56,KZ,1707747618
490,Berdigestyakh,62.0989,126.6992,-25.71,98,99,2.48,RU,1707747619
491,Mahriz,31.5917,54.4318,16.28,22,0,1.83,IR,1707747619
492,Jiagedaqi,50.4167,124.1167,-8.63,96,100,1.2,CN,1707747619
493,Kailua-Kona,19.6406,-155.9956,20.98,74,75,2.57,US,1707747400
494,Contamana,-7.3333,-75.0167,24.74,90,100,0.78,PE,1707747620
495,Urangan,-25.3,152.9,24.55,86,7,1.79,AU,1707747620
496,Muynoq,43.7683,59.0214,7.3,56,99,7.2,UZ,1707747621
497,Juneau,58.3019,-134.4197,1.0,95,100,1.54,US,1707747621
498,Muroto-Misakicho,33.2833,134.15,10.69,51,0,0.99,JP,1707747621
499,Cam Ranh,11.9214,109.1591,24.98,69,40,6.69,VN,1707747495
500,Sucua,-2.4667,-78.1667,23.41,88,100,0.0,EC,1707747622
501,Road Town,18.4167,-64.6167,28.05,61,20,4.63,VG,1707747623
502,Santa Barbara,34.7333,-120.0343,7.68,100,0,0.0,US,1707747541
503,Broome,42.2506,-75.833,0.66,91,100,0.0,US,1707747623
504,Santander,43.4647,-3.8044,13.11,80,40,7.2,ES,1707747624
505,Sangola,17.4333,75.2,30.9,21,7,4.22,IN,1707747624
506,Puerto Lempira,15.2667,-83.7667,26.6,70,75,3.52,HN,1707747625
507,Sao Jose Da Coroa Grande,-8.8978,-35.1478,31.23,59,93,5.18,BR,1707747626
508,Sinabang,2.4803,96.3801,28.16,72,0,1.25,ID,1707747627
509,Fort St. John,56.2499,-120.8529,-5.06,58,20,4.63,CA,1707747627
510,Holualoa,19.6228,-155.9522,18.91,74,75,2.57,US,1707747627
511,Basoko,1.2391,23.616,34.85,39,100,2.01,CD,1707747628
512,Zaragoza,41.6561,-0.8773,18.6,37,20,10.8,ES,1707747629
513,Inirida,3.8653,-67.9239,28.75,67,98,1.52,CO,1707747629
514,Port Blair,11.6667,92.75,28.02,83,40,4.12,IN,1707747630
515,Nouadhibou,20.931,-17.0347,22.38,61,0,3.13,MR,1707747630
516,Ottawa,45.4112,-75.6981,0.69,82,75,3.09,CA,1707746750
517,Ati,13.2154,18.3353,37.02,6,2,4.37,TD,1707747631
518,Port Moresby,-9.4431,147.1797,24.68,94,20,3.6,PG,1707747632
519,Scarborough,54.2797,-0.4044,9.88,68,4,3.58,GB,1707747470
520,Xinyuan,37.3,99.0,-8.07,33,52,2.1,CN,1707747633
521,Bunia,1.5667,30.25,27.93,43,49,4.07,CD,1707747634
522,Berg,47.9634,11.3734,8.38,78,40,5.66,DE,1707747635
523,Tongchuan,35.0806,109.0897,7.4,58,0,0.98,CN,1707747635
524,Gornopravdinsk,60.05,69.9,-26.13,100,30,1.83,RU,1707747636
525,La Rinconada,37.4873,-5.9826,22.85,65,0,8.23,ES,1707747636
526,Midland,31.9974,-102.0779,-0.29,89,0,3.6,US,1707747559
527,Mukalla,14.5425,49.1242,27.09,71,43,3.68,YE,1707747637
528,Sandpoint,48.2766,-116.5533,1.36,100,100,0.0,US,1707747638
529,Luena,-11.7833,19.9167,29.8,42,72,2.72,AO,1707747340
530,Kingston,17.997,-76.7936,28.53,72,75,8.23,JM,1707747522
531,Tucuma,-0.1833,-50.05,26.55,82,81,3.0,BR,1707747639
532,Berezovyy,51.6667,135.7,-14.44,97,69,1.19,RU,1707747639
533,Bonnyville,54.2668,-110.735,-15.11,91,100,1.85,CA,1707747640
534,Cabo San Lucas,22.8909,-109.9124,16.4,69,2,0.45,MX,1707747629
535,Bambari,5.768,20.6757,40.75,14,100,1.91,CF,1707747641
536,Leirvik,59.7798,5.5005,2.57,100,100,7.72,NO,1707747642
537,Felipe Carrillo Puerto,19.5833,-88.05,25.42,85,100,1.96,MX,1707747643
538,Lemvig,56.5486,8.3102,1.78,96,100,1.54,DK,1707747643
539,Talodi,10.6325,30.3797,38.55,9,100,0.82,SD,1707747644
540,Mizhhirya,48.5246,23.5056,10.34,78,100,1.93,UA,1707747645
541,Blenheim,-41.516,173.9528,11.96,88,99,1.48,NZ,1707747645
542,Taoudenni,22.6783,-3.9836,33.43,24,0,4.61,ML,1707747646
543,Saguenay,48.4168,-71.0657,-6.54,79,100,3.09,CA,1707747473
544,Nantucket,41.2835,-70.0995,5.08,87,0,4.63,US,1707747636
545,Beruniy,41.6911,60.7525,10.98,54,0,3.09,UZ,1707747647
546,Karystos,38.0133,24.4161,18.55,73,100,4.16,GR,1707747648
547,Muisne,0.6,-80.0333,26.4,87,100,5.11,EC,1707747648
548,Luchegorsk,46.4764,134.2569,-2.27,82,100,6.05,RU,1707747648
549,Shetpe,44.1667,52.1167,11.63,52,84,2.42,KZ,1707747649
550,Banda Aceh,5.5577,95.3222,26.35,78,6,6.93,ID,1707747649
551,Lorengau,-2.0226,147.2712,27.65,81,53,4.48,PG,1707747650
552,Salinopolis,-0.6136,-47.3561,27.49,82,100,6.4,BR,1707747650
553,Viedma,-40.8135,-62.9967,19.09,35,6,9.78,AR,1707747651
554,Weno,7.4515,151.8468,26.97,83,100,5.14,FM,1707747651
555,Kuantan,3.8077,103.326,24.06,94,40,2.06,MY,1707747651
556,Malkerns,-26.5667,31.1833,29.89,39,0,5.67,SZ,1707747651
557,Elbasan,41.1125,20.0822,14.4,67,85,2.15,AL,1707747651
558,Tyukhtet,56.5389,89.3011,-16.41,88,100,5.35,RU,1707747652
559,Baise City,23.8997,106.6133,17.81,53,46,1.89,CN,1707747652
560,Konosha,60.9736,40.257,-16.09,100,82,1.35,RU,1707747642
561,Rouissat,31.9243,5.3502,28.04,26,12,6.17,DZ,1707747652
562,Yaren,-0.5472,166.916,28.1,78,63,3.77,NR,1707747652
563,Ogdensburg,44.6942,-75.4863,1.36,77,100,2.57,US,1707747652
564,Kirkwall,58.9848,-2.9587,6.65,87,75,4.12,GB,1707747653
565,Deols,46.8293,1.7043,10.05,81,40,2.57,FR,1707747653
566,Umluj,25.0213,37.2685,24.2,45,53,4.11,SA,1707747653
567,Tanjung Pandan,-2.75,107.65,27.51,82,100,5.24,ID,1707747535
568,Ivatsevichy,52.709,25.3401,8.53,92,98,2.52,BY,1707747653
569,Amuntai,-2.4177,115.2494,24.26,91,100,1.03,ID,1707747654
570,Crane,31.3974,-102.3501,1.38,70,0,3.25,US,1707747654
571,Palenque,17.5167,-91.9667,22.09,94,0,0.0,MX,1707747654
572,Plettenberg Bay,-34.0527,23.3716,27.73,50,13,2.6,ZA,1707747654
573,Taroa,8.7058,171.2275,27.03,76,100,9.22,MH,1707747654
574,Sao Raimundo Nonato,-9.0153,-42.6994,31.75,44,93,5.75,BR,1707747368
575,Zhirnovsk,50.9845,44.7735,1.16,100,100,5.61,RU,1707747654
576,Boumagueur,35.5052,5.5525,13.88,74,99,4.82,DZ,1707747655
577,Achinsk,56.2694,90.4993,-14.92,89,100,5.89,RU,1707747655
578,Velizh,55.6056,31.1967,0.47,99,100,2.03,RU,1707747655
579,Moab,38.5733,-109.5498,-5.97,52,0,1.12,US,1707747550
580,Nema,57.5067,50.5011,-12.19,88,100,4.84,RU,1707747655
581,Kittila,67.6647,24.8936,-22.92,77,0,1.03,FI,1707747656
582,Pacific Grove,36.6177,-121.9166,10.15,93,0,2.06,US,1707747576
583,Blair,41.5444,-96.125,-0.62,78,0,2.06,US,1707747656
584,Emerald,-23.5333,148.1667,24.08,75,38,7.68,AU,1707747656
585,Nehe,48.4833,124.8333,-12.49,95,77,1.4,CN,1707747656
586,Altos,-5.0381,-42.46,30.17,55,42,3.67,BR,1707747656
587,Preobrazheniye,42.9019,133.9064,-0.25,89,43,3.63,RU,1707747656
588,Recreo,-29.2818,-65.061,36.31,38,55,4.74,AR,1707747657
589,Mariehamn,60.0973,19.9348,-4.54,80,100,6.17,AX,1707747657
590,Richards Bay,-28.783,32.0377,26.71,55,26,6.34,ZA,1707747657
591,Paita,-5.0892,-81.1144,26.37,67,13,4.07,PE,1707747657
592,Karachi,24.9056,67.0822,23.9,27,19,3.09,PK,1707747645
593,Lesnoy,57.6198,63.0784,-13.82,95,97,3.15,RU,1707747657
